{"type": "FeatureCollection", "features": [{"type": "Feature", "geometry": {"type": "Point", "coordinates": [-86.53, 39.17]}, "properties": {"City": "Bloomington", "State": "Indiana", "Title": "City of Bloomington Data Portal", "sourceURL": "https://data.bloomington.in.gov", "btaaURL": "https://geo.btaa.org/?q=01c-01", "totalRecords": 39, "Size": 16000}}, {"type": "Feature", "geometry": {"type": "Point", "coordinates": [-86.13, 39.78]}, "properties": {"City": "Indianapolis", "State": "Indiana", "Title": "OpenIndy Data Portal", "sourceURL": "http://data.indy.gov", "btaaURL": "https://geo.btaa.org/?q=01c-02", "totalRecords": 115, "Size": 22000}}, {"type": "Feature", "geometry": {"type": "Point", "coordinates": [-87.7, 42.05]}, "properties": {"City": "Evanston", "State": "Illinois", "Title": "City of Evanston Open Data", "sourceURL": "https://data-evanston.opendata.arcgis.com", "btaaURL": "https://geo.btaa.org/?q=02c-01", "totalRecords": 40, "Size": 16000}}, {"type": "Feature", "geometry": {"type": "Point", "coordinates": [-93.6, 41.57]}, "properties": {"City": "Des Moines", "State": "Iowa", "Title": "City of Des Moines GIS Data", "sourceURL": "https://www.dsm.city/city_of_des_moines_gis_data", "btaaURL": "https://geo.btaa.org/?q=03c-01", "totalRecords": 17, "Size": 16000}}, {"type": "Feature", "geometry": {"type": "Point", "coordinates": [-91.54, 41.65]}, "properties": {"City": "Iowa City", "State": "Iowa", "Title": "City of Iowa City GIS Portal", "sourceURL": "https://maps.iowa-city.org/arcgisportal/home/index.html", "btaaURL": "https://geo.btaa.org/?q=03c-03", "totalRecords": 6, "Size": 12000}}, {"type": "Feature", "geometry": {"type": "Point", "coordinates": [-92.34, 42.5]}, "properties": {"City": "Waterloo", "State": "Iowa", "Title": "City of Waterloo's Mapping and GIS Hub", "sourceURL": "https://waterlooia.maps.arcgis.com/home/index.html", "btaaURL": "https://geo.btaa.org/?q=03c-04", "totalRecords": 1, "Size": 12000}}, {"type": "Feature", "geometry": {"type": "Point", "coordinates": [-77.01, 38.89]}, "properties": {"City": "Washington", "State": "District of Columbia", "Title": "Open Data DC", "sourceURL": "https://opendata.dc.gov", "btaaURL": "https://geo.btaa.org/?q=04c-01", "totalRecords": 967, "Size": 22000}}, {"type": "Feature", "geometry": {"type": "Point", "coordinates": [-76.62, 39.28]}, "properties": {"City": "Baltimore", "State": "Maryland", "Title": "City of Baltimore GIS Open Data|Open Baltimore", "sourceURL": "http://gis-baltimore.opendata.arcgis.com|https://data.baltimorecity.gov", "btaaURL": "https://geo.btaa.org/?q=04c-02", "totalRecords": 1438, "Size": 22000}}, {"type": "Feature", "geometry": {"type": "Point", "coordinates": [-77.42, 39.43]}, "properties": {"City": "Frederick", "State": "Maryland", "Title": "City of Frederick GIS", "sourceURL": "https://www.cityoffrederick.com/523/SpiresGIS", "btaaURL": "https://geo.btaa.org/?q=04c-04", "totalRecords": 163, "Size": 22000}}, {"type": "Feature", "geometry": {"type": "Point", "coordinates": [-93.26, 44.97]}, "properties": {"City": "Minneapolis", "State": "Minnesota", "Title": "Minneapolis Open Data", "sourceURL": "http://opendata.minneapolismn.gov", "btaaURL": "https://geo.btaa.org/?q=05c-01", "totalRecords": 138, "Size": 22000}}, {"type": "Feature", "geometry": {"type": "Point", "coordinates": [-93.11, 44.94]}, "properties": {"City": "Saint Paul", "State": "Minnesota", "Title": "City of Saint Paul GIS Data", "sourceURL": "https://information.stpaul.gov", "btaaURL": "https://geo.btaa.org/?q=05c-02", "totalRecords": 33, "Size": 16000}}, {"type": "Feature", "geometry": {"type": "Point", "coordinates": [-83.1, 42.35]}, "properties": {"City": "Detroit", "State": "Michigan", "Title": "Detroit Open Data", "sourceURL": "https://data.detroitmi.gov", "btaaURL": "https://geo.btaa.org/?q=07c-01", "totalRecords": 112, "Size": 16000}}, {"type": "Feature", "geometry": {"type": "Point", "coordinates": [-83.74, 42.27]}, "properties": {"City": "Ann Arbor", "State": "Michigan", "Title": "Ann Arbor Data Catalog", "sourceURL": "https://www.a2gov.org/services/data/Pages/default.aspx", "btaaURL": "https://geo.btaa.org/?q=07c-02", "totalRecords": 52, "Size": 16000}}, {"type": "Feature", "geometry": {"type": "Point", "coordinates": [-85.66, 42.96]}, "properties": {"City": "Grand Rapids", "State": "Michigan", "Title": "Grand Rapids, Michigan Open Data", "sourceURL": "https://grdata-grandrapids.opendata.arcgis.com", "btaaURL": "https://geo.btaa.org/?q=07c-03", "totalRecords": 41, "Size": 16000}}, {"type": "Feature", "geometry": {"type": "Point", "coordinates": [-83.7, 43.01]}, "properties": {"City": "Flint", "State": "Michigan", "Title": "MapFlint Data Download", "sourceURL": "https://mapflint-umich.opendata.arcgis.com", "btaaURL": "https://geo.btaa.org/?q=07c-04", "totalRecords": 13, "Size": 12000}}, {"type": "Feature", "geometry": {"type": "Point", "coordinates": [-75.12, 40.0]}, "properties": {"City": "Philadelphia", "State": "Pennsylvania", "Title": "OpenDataPhilly|PHLmaps", "sourceURL": "https://www.opendataphilly.org|http://data-phl.opendata.arcgis.com", "btaaURL": "https://geo.btaa.org/?q=08c-01", "totalRecords": 936, "Size": 22000}}, {"type": "Feature", "geometry": {"type": "Point", "coordinates": [-86.28, 41.68]}, "properties": {"City": "South Bend", "State": "Indiana", "Title": "South Bend, IN Open Data", "sourceURL": "http://data-southbend.opendata.arcgis.com", "btaaURL": "https://geo.btaa.org/?q=09c-01", "totalRecords": 13, "Size": 12000}}, {"type": "Feature", "geometry": {"type": "Point", "coordinates": [-84.54, 39.17]}, "properties": {"City": "Cincinnati", "State": "Ohio", "Title": "Open Data for Cincinnati, Ohio|Cincinnati Area Geographic Information Systems", "sourceURL": "http://cagis.org/Opendata/?|http://cagis.org/Opendata/?", "btaaURL": "https://geo.btaa.org/?q=11c-01", "totalRecords": 6, "Size": 12000}}, {"type": "Feature", "geometry": {"type": "Point", "coordinates": [-87.73, 41.83]}, "properties": {"City": "Chicago", "State": "Illinois", "Title": "City of Chicago Data Portal", "sourceURL": "https://data.cityofchicago.org", "btaaURL": "https://geo.btaa.org/?q=12c-01", "totalRecords": 172, "Size": 22000}}, {"type": "Feature", "geometry": {"type": "Point", "coordinates": [-96.69, 40.8]}, "properties": {"City": "Lincoln", "State": "Nebraska", "Title": "Lincoln Open Data and Performance Management", "sourceURL": "https://data2-lincolnne.opendata.arcgis.com/", "btaaURL": "https://geo.btaa.org/?q=13c-01", "totalRecords": 2, "Size": 12000}}, {"type": "Feature", "geometry": {"type": "Point", "coordinates": [-98.36, 40.92]}, "properties": {"City": "Grand Island", "State": "Nebraska", "Title": "City of Grand Island", "sourceURL": "https://data-cityofgi.opendata.arcgis.com/", "btaaURL": "https://geo.btaa.org/?q=13c-02", "totalRecords": 1, "Size": 12000}}]}